City_ID,City,Country,Lat,Lng,Max Temp,Humidity,Cloudiness,Wind Speed,Current Description
0,Busselton,AU,-33.65,115.3333,52.9,84,49,7.45,scattered clouds
1,Rikitea,PF,-23.1203,-134.9692,75.47,71,100,10.78,overcast clouds
2,Havelock,US,34.8791,-76.9013,75.94,79,75,9.22,broken clouds
3,Hobart,AU,-42.8794,147.3294,43.05,92,0,5.75,clear sky
4,Te Anau,NZ,-45.4167,167.7167,39.85,89,100,1.68,overcast clouds
5,Kamaishi,JP,39.2667,141.8833,50.97,92,88,4.09,overcast clouds
6,Cidreira,BR,-30.1811,-50.2056,61.93,74,7,14.9,clear sky
7,Palaikastron,GR,35.2,26.25,74.23,75,0,16.58,clear sky
8,Upernavik,GL,72.7868,-56.1549,28.99,77,15,16.89,few clouds
9,Chuy,UY,-33.6971,-53.4616,58.12,62,100,10.78,overcast clouds
10,Tuktoyaktuk,CA,69.4541,-133.0374,28.4,93,100,10.36,overcast clouds
11,Sitka,US,57.0531,-135.33,55.29,71,40,4.61,scattered clouds
12,Caravelas,BR,-17.7125,-39.2481,75.16,84,42,15.35,scattered clouds
13,Chokurdakh,RU,70.6333,147.9167,41.7,53,100,13.22,overcast clouds
14,Albany,US,42.6001,-73.9662,70.03,62,2,4.54,clear sky
15,East London,ZA,-33.0153,27.9116,67.14,72,0,16.11,clear sky
16,Kaitangata,NZ,-46.2817,169.8464,40.41,86,59,5.48,broken clouds
17,Port Elizabeth,ZA,-33.918,25.5701,67.1,72,20,17.27,few clouds
18,Barrow,US,71.2906,-156.7887,28.42,86,100,21.85,mist
19,Hermanus,ZA,-34.4187,19.2345,63.81,82,100,5.68,overcast clouds
20,Dickinson,US,29.4608,-95.0513,80.02,85,11,4.0,few clouds
21,Puerto Escondido,MX,15.85,-97.0667,81.07,78,22,2.57,few clouds
22,Umm Kaddadah,SD,13.6017,26.6876,101.62,12,92,13.06,overcast clouds
23,Mataura,NZ,-46.1927,168.8643,36.48,91,100,3.22,overcast clouds
24,Corum,TR,40.5,34.75,78.17,45,0,10.4,clear sky
25,Salamiyah,SY,35.0113,37.0532,89.53,15,0,16.31,clear sky
26,Avarua,CK,-21.2078,-159.775,75.25,88,75,8.05,light rain
27,Tasiilaq,GL,65.6145,-37.6368,39.45,58,7,9.33,clear sky
28,Cabedelo,BR,-6.9811,-34.8339,79.47,76,100,9.46,overcast clouds
29,Dingle,PH,10.9995,122.6711,79.14,81,93,2.89,overcast clouds
30,Los Llanos De Aridane,ES,28.6585,-17.9182,69.55,73,40,11.5,scattered clouds
31,Tabuk,PH,17.4189,121.4443,75.96,91,75,4.9,broken clouds
32,Mersing,MY,2.4312,103.8405,82.31,83,40,4.61,scattered clouds
33,Mezen,RU,65.8522,44.24,73.22,20,1,11.5,clear sky
34,Teknaf,BD,20.8624,92.3058,81.45,84,85,7.0,overcast clouds
35,Bengkulu,ID,-3.8004,102.2655,78.4,84,97,3.58,overcast clouds
36,Constitucion,CL,-35.3333,-72.4167,53.64,91,100,18.68,moderate rain
37,Ushuaia,AR,-54.8,-68.3,35.22,75,75,19.57,light snow
38,Bluff,NZ,-46.6,168.3333,36.81,81,100,7.0,overcast clouds
39,Punta Arenas,CL,-53.15,-70.9167,33.91,80,20,8.05,few clouds
40,Devonport,AU,-41.1667,146.35,45.09,90,100,5.35,overcast clouds
41,Kruisfontein,ZA,-34.0033,24.7314,64.89,66,100,15.14,overcast clouds
42,Vaini,TO,-21.2,-175.2,69.96,94,20,3.44,few clouds
43,Airai,TL,-8.9266,125.4092,60.71,95,85,1.61,overcast clouds
44,Port Blair,IN,11.6667,92.75,80.64,83,75,2.3,mist
45,Bandarbeyla,SO,9.4942,50.8122,82.38,68,24,29.71,few clouds
46,Eureka,US,40.8021,-124.1637,57.74,83,100,3.0,overcast clouds
47,Saryg-Sep,RU,51.5,95.6,57.31,30,12,4.12,few clouds
48,Muzhi,RU,65.3667,64.6667,51.51,24,16,13.82,few clouds
49,Breves,BR,-1.6822,-50.4803,84.15,69,50,3.85,scattered clouds
50,Atuona,PF,-9.8,-139.0333,77.36,79,17,17.13,few clouds
51,Aswan,EG,24.0934,32.907,107.82,8,16,11.18,few clouds
52,Calderitas,MX,18.55,-88.25,78.78,77,13,6.11,few clouds
53,Bredasdorp,ZA,-34.5322,20.0403,61.36,80,100,11.9,overcast clouds
54,Yar-Sale,RU,66.8333,70.8333,43.9,34,67,22.37,broken clouds
55,Sambava,MG,-14.2667,50.1667,76.46,73,0,16.53,clear sky
56,Nikolskoye,RU,59.7035,30.7861,57.09,83,81,8.61,light rain
57,Ornskoldsvik,SE,63.2909,18.7153,61.59,40,100,13.96,overcast clouds
58,Pisco,PE,-13.7,-76.2167,61.02,94,100,2.3,mist
59,Kutum,SD,14.2,24.6667,93.51,14,100,14.65,overcast clouds
60,Hilo,US,19.7297,-155.09,83.28,97,100,6.91,moderate rain
61,Port Hedland,AU,-20.3167,118.5667,66.25,77,6,5.75,clear sky
62,Innisfail,AU,-17.5333,146.0333,67.53,93,60,3.94,broken clouds
63,Katsuura,JP,35.1333,140.3,64.74,72,5,5.66,clear sky
64,Yellowknife,CA,62.456,-114.3525,54.12,54,20,5.75,few clouds
65,Ostrovnoy,RU,68.0531,39.5131,55.72,48,100,18.72,overcast clouds
66,Emerald,AU,-23.5333,148.1667,61.34,84,0,7.07,clear sky
67,Kapaa,US,22.0752,-159.319,69.12,95,8,7.31,clear sky
68,Qaanaaq,GL,77.484,-69.3632,26.44,82,17,8.43,few clouds
69,Saint-Philippe,RE,-21.3585,55.7679,74.79,79,32,15.97,light rain
70,Luderitz,NA,-26.6481,15.1594,73.99,37,0,7.47,clear sky
71,Anadyr,RU,64.75,177.4833,39.7,60,0,11.18,clear sky
72,Samarai,PG,-10.6167,150.6667,81.43,83,100,10.0,overcast clouds
73,Quixada,BR,-4.9714,-39.0153,79.09,83,85,5.32,overcast clouds
74,Grand Gaube,MU,-20.0064,57.6608,75.6,63,0,8.01,clear sky
75,Rio Grande,BR,-32.035,-52.0986,59.11,64,48,14.74,scattered clouds
76,Pechora,RU,65.1472,57.2244,61.88,24,0,6.13,clear sky
77,Georgetown,MY,5.4112,100.3354,84.15,73,20,5.75,few clouds
78,Ancud,CL,-41.8697,-73.8203,47.03,89,96,10.2,overcast clouds
79,Soyo,AO,-6.1349,12.3689,79.21,73,3,10.85,clear sky
80,Kodiak,US,57.79,-152.4072,53.87,64,13,4.09,few clouds
81,Nosy Varika,MG,-20.5833,48.5333,72.28,86,97,11.18,moderate rain
82,Dikson,RU,73.5069,80.5464,28.45,86,18,9.51,few clouds
83,Hasaki,JP,35.7333,140.8333,59.4,66,5,4.14,clear sky
84,Lebu,CL,-37.6167,-73.65,51.85,97,100,7.16,moderate rain
85,Port Alfred,ZA,-33.5906,26.891,66.18,74,17,5.99,few clouds
86,Conceicao Do Araguaia,BR,-8.2578,-49.2647,87.31,51,100,3.98,overcast clouds
87,Venado Tuerto,AR,-33.7456,-61.9688,51.76,59,100,11.81,overcast clouds
88,Cape Town,ZA,-33.9258,18.4232,69.12,66,20,12.66,few clouds
89,Kanbe,MM,16.7053,96.0017,78.85,81,91,7.67,overcast clouds
90,Jamestown,US,42.097,-79.2353,59.95,41,0,3.0,clear sky
91,Awbari,LY,26.5921,12.7805,96.48,10,0,11.05,clear sky
92,Tocopilla,CL,-22.092,-70.1979,69.87,53,86,3.38,overcast clouds
93,Novonikolayevskiy,RU,50.9738,42.3649,73.78,64,46,9.4,scattered clouds
94,Ust-Nera,RU,64.5667,143.2,58.64,51,6,3.22,clear sky
95,Qui Nhon,VN,13.7667,109.2333,82.67,77,7,6.17,clear sky
96,Khani,GE,41.9563,42.9566,67.57,58,1,4.34,clear sky
97,Puerto Ayora,EC,-0.7393,-90.3518,72.55,82,83,5.77,broken clouds
98,Luena,AO,-11.7833,19.9167,76.6,28,4,5.28,clear sky
99,Thompson,CA,55.7435,-97.8558,37.56,93,100,8.05,overcast clouds
100,Cabo San Lucas,MX,22.8909,-109.9124,75.61,71,0,1.99,clear sky
101,Lata,PT,40.1629,-8.3327,71.08,56,96,6.46,overcast clouds
102,Faanui,PF,-16.4833,-151.75,80.13,74,6,15.32,light rain
103,Gasa,PS,31.5,34.4667,88.88,54,0,14.5,clear sky
104,Moron,AR,-34.6534,-58.6198,54.97,83,100,8.37,overcast clouds
105,Kuvshinovo,RU,57.0295,34.1725,65.86,39,33,10.18,scattered clouds
106,Kahului,US,20.8947,-156.47,73.85,84,2,1.99,clear sky
107,Saskylakh,RU,71.9167,114.0833,35.56,94,100,12.48,light rain
108,Victoria,HK,22.2855,114.1577,86.38,83,100,11.99,overcast clouds
109,Macherla,IN,16.4833,79.4333,101.37,22,97,12.41,overcast clouds
110,New Norfolk,AU,-42.7826,147.0587,42.71,88,65,2.1,light rain
111,Souillac,MU,-20.5167,57.5167,75.58,60,40,18.41,scattered clouds
112,Neiafu,TO,-18.65,-173.9833,74.08,94,20,0.0,few clouds
113,Ilulissat,GL,69.2167,-51.1,38.59,58,19,4.81,few clouds
114,Xai-Xai,MZ,-25.0519,33.6442,71.62,72,0,6.17,clear sky
115,Coquimbo,CL,-29.9533,-71.3436,55.13,50,0,5.75,clear sky
116,Kavaratti,IN,10.5669,72.642,83.71,75,54,16.75,broken clouds
117,Labuhan,ID,-6.8844,112.2051,80.78,80,100,6.44,overcast clouds
118,Lashio,MM,22.9333,97.75,69.08,96,83,1.99,broken clouds
119,Walvis Bay,NA,-22.9575,14.5053,84.07,20,5,4.34,clear sky
120,Mar Del Plata,AR,-38.0023,-57.5575,51.94,78,20,6.91,few clouds
121,Ahipara,NZ,-35.1667,173.1667,54.03,80,100,4.92,overcast clouds
122,Ponta Do Sol,PT,32.6667,-17.1,73.13,67,45,3.98,scattered clouds
123,Imbituba,BR,-28.24,-48.6703,64.09,79,21,1.99,few clouds
124,Kodinsk,RU,58.6881,99.1844,41.56,80,100,2.8,overcast clouds
125,Bethel,US,41.3712,-73.414,74.88,67,14,3.29,few clouds
126,Sabang,ID,5.8933,95.3214,83.98,74,100,13.73,overcast clouds
127,Grand-Santi,GF,4.25,-54.3833,82.67,72,85,4.16,overcast clouds
128,Asilah,MA,35.465,-6.0348,73.36,66,0,10.96,clear sky
129,Ayan,RU,56.45,138.1667,39.61,93,61,7.29,broken clouds
130,Rognan,NO,67.0953,15.3878,51.76,82,100,9.08,overcast clouds
131,Castro,BR,-24.7911,-50.0119,56.01,79,92,8.23,overcast clouds
132,Ocampo,MX,21.65,-101.5,61.99,47,91,2.26,overcast clouds
133,Kieta,PG,-6.2167,155.6333,78.8,80,91,2.48,overcast clouds
134,Plettenberg Bay,ZA,-34.0527,23.3716,62.92,62,100,9.8,overcast clouds
135,Maceio,BR,-9.6658,-35.7353,74.64,88,100,2.3,overcast clouds
136,Tautira,PF,-17.7333,-149.15,78.46,78,31,13.4,light rain
137,Meulaboh,ID,4.1363,96.1285,79.99,79,100,1.52,overcast clouds
138,Tena,EC,-0.9833,-77.8167,66.36,84,100,0.54,overcast clouds
139,Moranbah,AU,-22.0016,148.0466,66.09,75,39,7.83,scattered clouds
140,Witu,KE,-2.3889,40.4382,78.84,76,24,15.82,light rain
141,Letychiv,UA,49.3826,27.6305,72.0,62,94,8.57,overcast clouds
142,Rawson,AR,-43.3002,-65.1023,49.17,55,87,12.26,overcast clouds
143,Zhigansk,RU,66.7697,123.3711,57.4,79,77,5.21,broken clouds
144,Celestun,MX,20.8667,-90.4,81.14,74,18,7.87,few clouds
145,Eganville,CA,45.5334,-77.0994,58.33,55,40,11.59,scattered clouds
146,Calvinia,ZA,-31.4707,19.776,69.91,12,11,9.06,few clouds
147,Tougan,BF,13.0667,-3.0667,105.46,15,1,7.85,clear sky
148,Kyshtovka,RU,56.555,76.6271,48.42,62,100,7.99,overcast clouds
149,Sergeyevka,KZ,53.88,67.4158,54.41,60,19,4.07,few clouds
150,Nelson Bay,AU,-32.7167,152.15,53.1,76,0,16.22,clear sky
151,Yining,CN,29.0361,114.5636,75.09,96,53,2.26,moderate rain
152,Axim,GH,4.8699,-2.2405,83.17,74,100,7.36,light rain
153,Olinda,BR,-8.0089,-34.8553,76.73,94,100,9.22,light rain
154,Butaritari,KI,3.0707,172.7902,80.76,69,38,8.43,scattered clouds
155,Muisne,EC,0.6,-80.0333,76.06,88,100,5.91,light rain
156,Rancho Palos Verdes,US,33.7445,-118.387,65.08,90,100,5.01,overcast clouds
157,Tawang,IN,27.5833,91.8667,55.8,98,100,0.51,overcast clouds
158,Pevek,RU,69.7008,170.3133,28.89,97,100,9.93,light snow
159,Foz,ES,43.5692,-7.2544,63.59,85,98,5.32,overcast clouds
160,Tuatapere,NZ,-46.1333,167.6833,40.64,87,100,4.99,overcast clouds
161,Lakhimpur,IN,27.95,80.7667,101.17,7,100,6.42,overcast clouds
162,Vestmannaeyjar,IS,63.4427,-20.2734,47.39,76,40,6.91,scattered clouds
163,Aklavik,CA,68.2191,-135.0107,32.0,80,100,8.05,overcast clouds
164,Nishihara,JP,26.1842,127.7558,76.68,94,75,5.75,broken clouds
165,Bonthe,SL,7.5264,-12.505,85.91,60,98,7.94,overcast clouds
166,Dossor,KZ,47.5272,52.9811,89.83,15,10,4.68,clear sky
167,Beni Suef,EG,29.0731,31.0979,100.17,13,0,11.56,clear sky
168,Gamba,GA,-2.65,10.0,79.92,72,20,10.18,few clouds
169,The Pas,CA,53.8251,-101.2541,42.82,81,0,6.91,clear sky
170,Opuwo,NA,-18.0607,13.84,75.87,21,34,13.94,scattered clouds
171,Alofi,NU,-19.0595,-169.9187,73.29,100,8,2.3,clear sky
172,Bastia,FR,42.6667,9.3333,93.0,79,0,9.22,clear sky
173,Hithadhoo,MV,-0.6,73.0833,84.42,69,47,8.59,scattered clouds
174,Aksha,RU,50.2814,113.2867,52.68,96,100,9.1,moderate rain
175,Lima,PE,-12.0432,-77.0282,65.89,81,75,3.44,mist
176,Alihe,CN,50.5667,123.7167,52.03,92,54,4.41,broken clouds
177,Magdagachi,RU,53.45,125.8,54.41,74,88,2.1,overcast clouds
178,Isangel,VU,-19.55,169.2667,73.47,87,100,7.23,overcast clouds
179,Atambua,ID,-9.1061,124.8925,74.14,87,99,2.84,overcast clouds
180,Mayo,US,38.8876,-76.5119,79.47,58,0,9.22,clear sky
181,Yangshe,CN,31.8899,120.6052,80.04,98,99,1.01,moderate rain
182,Mahebourg,MU,-20.4081,57.7,75.25,64,5,20.22,clear sky
183,Guerrero Negro,MX,27.9769,-114.0611,61.61,82,97,12.84,overcast clouds
184,Khovu-Aksy,RU,51.1333,93.6,54.01,43,69,2.28,broken clouds
185,Leningradskiy,RU,69.3833,178.4167,30.81,87,95,2.91,overcast clouds
186,Shellbrook,CA,53.2168,-106.4011,49.8,49,1,5.53,clear sky
187,Les Escoumins,CA,48.1111,-69.0236,51.15,86,99,1.72,overcast clouds
188,Mitu,CO,1.1983,-70.1733,71.89,95,100,0.85,light rain
189,Mocuba,MZ,-16.8392,36.9856,70.61,79,100,3.89,overcast clouds
190,Brazzaville,CG,-4.2658,15.2832,93.81,30,18,6.46,few clouds
191,Kichmengskiy Gorodok,RU,59.9816,45.7854,60.48,76,60,7.05,light rain
192,Omboue,GA,-1.5746,9.2618,80.06,73,86,8.55,overcast clouds
193,San Quintin,MX,30.4833,-115.95,61.38,87,64,11.21,broken clouds
194,Sabha,LY,27.0377,14.4283,95.58,12,0,10.29,clear sky
195,San Carlos De Bariloche,AR,-41.1456,-71.3082,33.55,93,75,3.44,broken clouds
196,Skjervoy,NO,70.0311,20.9714,51.8,86,92,13.02,light rain
197,Ilesha,NG,7.1371,5.2583,85.57,64,100,4.03,light rain
198,Morant Bay,JM,17.8815,-76.4093,83.71,80,99,11.3,light rain
199,Portobelo,PA,9.55,-79.65,85.75,73,20,3.53,few clouds
200,Ena,JP,35.4498,137.4128,67.06,92,99,1.72,overcast clouds
201,Yerbogachen,RU,61.2767,108.0108,47.46,51,71,1.7,broken clouds
202,Lesnoye,RU,58.2841,35.5158,60.67,61,100,9.66,overcast clouds
203,Kaduqli,SD,11.0167,29.7167,94.77,27,93,10.45,overcast clouds
204,Gizo,SB,-8.103,156.8419,82.4,73,71,4.52,broken clouds
205,Sao Gabriel Da Cachoeira,BR,-0.1303,-67.0892,77.04,82,99,2.95,overcast clouds
206,Panjab,AF,34.388,67.0233,65.3,17,30,5.7,scattered clouds
207,Gogrial,SS,8.5332,28.1004,100.13,21,96,8.3,overcast clouds
208,Valley Station,US,38.1112,-85.8702,76.3,59,20,3.44,few clouds
209,Ballina,AU,-28.8667,153.5667,55.02,79,83,7.25,broken clouds
210,Talnakh,RU,69.4865,88.3972,33.53,88,100,9.86,light snow
211,College,US,64.8569,-147.8028,57.9,47,82,1.01,broken clouds
212,Tual,ID,-5.6667,132.75,83.91,73,100,7.14,overcast clouds
213,Marsaxlokk,MT,35.8419,14.5431,76.59,65,13,6.17,few clouds
214,Wangkui,CN,46.8333,126.5,57.18,66,100,17.96,overcast clouds
215,Moramanga,MG,-18.9333,48.2,60.01,96,99,4.68,light rain
216,Torbay,CA,47.6666,-52.7314,50.29,77,100,7.0,overcast clouds
217,Ponta Delgada,PT,37.7333,-25.6667,66.92,94,75,11.5,broken clouds
218,At-Bashi,KG,41.1702,75.8106,56.89,44,25,7.23,scattered clouds
219,Provideniya,RU,64.3833,-173.3,46.2,62,95,3.76,overcast clouds
220,Cape Coast,GH,5.1053,-1.2466,82.53,73,100,5.93,overcast clouds
221,Piacabucu,BR,-10.4056,-36.4344,79.9,81,91,9.78,overcast clouds
222,Tilaran,CR,10.4703,-84.9671,75.11,79,92,3.65,overcast clouds
223,Pochutla,MX,15.7432,-96.4661,79.83,77,14,1.5,few clouds
224,La Ronge,CA,55.1001,-105.2842,46.26,60,0,3.56,clear sky
225,Qostanay,KZ,53.1667,63.5833,55.69,47,0,8.95,clear sky
226,Shingu,JP,33.7333,135.9833,66.04,91,100,2.93,overcast clouds
227,Tarauaca,BR,-8.1614,-70.7656,73.47,97,100,1.39,overcast clouds
228,San Patricio,US,28.017,-97.5169,83.89,78,10,3.44,clear sky
229,Touros,BR,-5.1989,-35.4608,84.11,66,100,10.09,overcast clouds
230,Claremore,US,36.3126,-95.6161,71.31,72,0,4.0,clear sky
231,Tomelloso,ES,39.1522,-3.0243,81.52,21,0,13.56,clear sky
232,Victor Harbor,AU,-35.5667,138.6167,54.0,91,23,26.78,moderate rain
233,Mahibadhoo,MV,3.7833,72.9667,83.46,76,20,14.65,few clouds
234,Primo Tapia,MX,32.22,-116.9172,63.99,84,66,3.78,broken clouds
235,Umm Lajj,SA,25.0213,37.2685,87.67,53,13,11.07,few clouds
236,Iralaya,HN,15.0,-83.2333,80.17,83,100,7.78,overcast clouds
237,Clyde River,CA,70.4692,-68.5914,31.5,96,100,5.08,overcast clouds
238,Kushima,JP,31.4583,131.2333,68.11,95,100,2.91,overcast clouds
239,Toora-Khem,RU,52.4675,96.11,53.98,59,66,9.42,broken clouds
240,Mpanda,TZ,-6.3655,31.0409,80.87,35,16,5.84,few clouds
241,Carnarvon,AU,-24.8667,113.6333,70.86,44,100,12.28,overcast clouds
242,Kargalinskaya,RU,43.7417,46.4792,85.42,28,0,13.76,clear sky
243,Kungur,RU,57.4368,56.9593,62.65,63,100,5.08,overcast clouds
244,Port Lincoln,AU,-34.7333,135.8667,54.05,80,98,20.58,overcast clouds
245,Harnai,PK,30.1005,67.9374,94.41,6,0,9.62,clear sky
246,Sao Jose Da Coroa Grande,BR,-8.8978,-35.1478,79.3,82,97,10.45,light rain
247,Esso,RU,55.9333,158.7,41.05,81,7,3.67,clear sky
248,Fairbanks,US,64.8378,-147.7164,57.92,47,83,5.06,broken clouds
249,Belmonte,BR,-15.8631,-38.8828,75.83,88,72,13.53,broken clouds
250,Sorong,ID,-0.8833,131.25,80.53,82,100,6.64,light rain
251,Arraial Do Cabo,BR,-22.9661,-42.0278,69.78,63,98,11.45,overcast clouds
252,Novo Horizonte,BR,-21.4681,-49.2208,74.93,46,57,9.78,broken clouds
253,Tiksi,RU,71.6872,128.8694,44.53,90,61,6.96,broken clouds
254,Ribeira Grande,PT,38.5167,-28.7,66.6,94,75,16.11,broken clouds
255,Quatre Cocos,MU,-20.2078,57.7625,75.31,65,7,20.07,clear sky
256,Saint-Louis,SN,16.3333,-15.0,110.07,11,3,20.56,clear sky
257,Esperance,AU,-33.8667,121.9,57.38,71,100,24.63,overcast clouds
258,Kristiansund,NO,63.1115,7.732,57.25,71,75,23.02,broken clouds
259,Barra Dos Coqueiros,BR,-10.9089,-37.0386,80.62,83,75,6.91,broken clouds
260,Chapais,CA,49.7834,-74.8492,53.38,54,100,2.19,overcast clouds
261,Mount Hagen,PG,-5.8581,144.2274,57.36,99,96,2.04,overcast clouds
262,Cordoba,AR,-31.4135,-64.1811,60.42,58,0,13.8,clear sky
263,Ketchikan,US,55.3422,-131.6461,50.47,93,100,9.22,light rain
264,Fredonia,US,42.4401,-79.3317,61.09,58,1,8.21,clear sky
265,Muros,ES,42.7762,-9.0603,72.68,76,14,6.42,few clouds
266,Cherskiy,RU,68.75,161.3,30.63,77,91,13.8,overcast clouds
267,Gobabis,NA,-22.45,18.9667,70.38,19,12,11.27,few clouds
268,Haines Junction,CA,60.7522,-137.5108,53.35,68,96,2.39,overcast clouds
269,Severo-Kurilsk,RU,50.6789,156.125,41.22,91,56,7.72,broken clouds
270,Goderich,CA,43.7501,-81.7165,51.91,76,3,8.05,clear sky
271,Lesnoy,RU,57.6198,63.0784,56.64,47,0,4.47,clear sky
272,Buala,SB,-8.145,159.5921,80.83,81,100,7.45,light rain
273,Aksarka,RU,66.5606,67.7975,45.99,31,47,19.86,scattered clouds
274,Iqaluit,CA,63.7506,-68.5145,38.7,80,81,4.0,broken clouds
275,Bacolod,PH,10.6667,122.95,80.17,80,97,3.06,overcast clouds
276,Scottsbluff,US,41.8666,-103.6672,63.79,69,15,3.8,few clouds
277,Auki,SB,-8.7676,160.7034,78.22,86,92,3.76,overcast clouds
278,Ayr,GB,55.4627,-4.6339,69.78,35,0,10.36,clear sky
279,Sidvokodvo,SZ,-26.6282,31.4202,73.06,42,0,4.38,clear sky
280,Bilibino,RU,68.0546,166.4372,34.88,66,43,3.94,scattered clouds
281,Itapirapua,BR,-15.8233,-50.6133,89.19,30,59,10.51,broken clouds
282,Christchurch,NZ,-43.5333,172.6333,50.92,86,100,8.05,overcast clouds
283,Port Hardy,CA,50.6996,-127.4199,50.18,100,75,0.0,broken clouds
284,Itarema,BR,-2.9248,-39.9167,81.54,75,100,5.66,overcast clouds
285,Abu Samrah,SY,35.3029,37.1841,92.91,11,0,14.09,clear sky
286,Adrar,MR,20.5022,-10.0711,102.33,11,99,21.32,overcast clouds
287,Sorland,NO,67.667,12.6934,46.26,90,100,31.0,light rain
288,Srednekolymsk,RU,67.45,153.6833,41.9,47,3,8.68,clear sky
289,Calama,CL,-22.4667,-68.9333,59.49,26,40,12.66,scattered clouds
290,Igarka,RU,67.4667,86.5833,44.92,68,83,14.63,broken clouds
291,Sumenep,ID,-7.0167,113.8667,79.93,83,44,6.76,scattered clouds
292,Santa Barbara,US,34.7333,-120.0343,54.45,93,100,0.0,mist
293,Ambulu,ID,-8.345,113.6058,77.02,89,99,3.06,overcast clouds
294,Miri,MY,4.4148,114.0089,79.48,80,100,1.74,overcast clouds
295,Kishi,NG,9.0833,3.85,95.9,36,68,4.54,broken clouds
296,Waipawa,NZ,-41.4122,175.5153,39.78,88,5,4.54,clear sky
297,Poum,NC,-20.2333,164.0167,75.24,75,0,12.37,clear sky
298,Marawi,PH,7.9986,124.2928,69.85,93,100,2.01,overcast clouds
299,Dubreka,GN,9.7911,-13.5233,88.36,51,100,8.21,overcast clouds
300,Tias,ES,28.9611,-13.645,74.88,53,75,18.41,broken clouds
301,Makakilo City,US,21.3469,-158.0858,73.72,75,20,3.44,few clouds
302,Obo,CF,5.3998,26.4869,77.86,72,98,5.39,light rain
303,Waw,SS,7.7029,27.9953,95.32,29,93,4.43,overcast clouds
304,Behbahan,IR,30.5959,50.2417,107.74,6,100,14.05,overcast clouds
305,Severo-Yeniseyskiy,RU,60.3725,93.0408,34.39,90,100,3.62,overcast clouds
306,Norman Wells,CA,65.282,-126.8329,43.29,70,78,4.0,broken clouds
307,Adelaide,AU,-34.9333,138.6,57.33,83,75,27.63,broken clouds
308,Kabo,CF,7.6994,18.629,69.51,96,100,7.52,light rain
309,Beringovskiy,RU,63.05,179.3167,36.57,85,52,3.94,broken clouds
310,San Cristobal,VE,7.7669,-72.225,64.58,70,100,4.79,overcast clouds
311,Mount Gambier,AU,-37.8333,140.7667,49.91,93,75,23.02,shower rain
312,Sioux Lookout,CA,50.1001,-91.917,49.84,57,62,5.64,broken clouds
313,Jalu,LY,29.0331,21.5482,95.94,21,0,16.4,clear sky
314,Dongying,CN,37.4564,118.4856,76.12,65,100,12.93,overcast clouds
315,Inirida,CO,3.8653,-67.9239,71.24,99,100,2.98,overcast clouds
316,Sakakah,SA,29.9697,40.2064,104.29,8,100,11.43,overcast clouds
317,Swidnica,PL,50.8438,16.4886,72.1,81,100,6.24,overcast clouds
318,Qaqortoq,GL,60.7167,-46.0333,53.13,32,0,4.81,clear sky
319,Lazaro Cardenas,MX,17.9583,-102.2,79.57,71,6,1.88,clear sky
320,Tsabong,BW,-26.0217,22.401,69.19,24,0,3.04,clear sky
321,Puerto Suarez,BO,-18.95,-57.8,79.56,48,88,5.14,overcast clouds
322,Coihaique,CL,-45.5752,-72.0662,38.01,81,75,4.61,broken clouds
323,Vila Velha,BR,-20.3297,-40.2925,73.35,86,75,13.8,broken clouds
324,Yulara,AU,-25.2406,130.9889,55.56,44,5,2.53,clear sky
325,Bani,DO,18.2833,-70.3333,85.44,60,75,7.34,broken clouds
326,Dunedin,NZ,-45.8742,170.5036,46.8,70,66,8.01,broken clouds
327,Saint George,US,37.1041,-113.5841,72.19,22,0,3.44,clear sky
328,Gweta,BW,-20.1833,25.2333,72.54,29,0,10.42,clear sky
329,Maniitsoq,GL,65.4167,-52.9,46.8,60,15,3.62,few clouds
330,Horta,PT,38.5333,-28.6333,65.84,94,75,16.11,broken clouds
331,Antofagasta,CL,-23.65,-70.4,66.22,58,88,3.87,overcast clouds
332,Port-Cartier,CA,50.0334,-66.8654,55.74,69,98,7.99,overcast clouds
333,Santander,ES,43.4647,-3.8044,66.6,84,75,4.0,broken clouds
334,Ponca City,US,36.707,-97.0856,68.9,81,100,7.94,overcast clouds
335,Neuquen,AR,-38.9516,-68.0591,40.89,81,100,4.61,light intensity drizzle
336,Rampura,IN,30.25,75.2333,104.56,6,0,4.16,clear sky
337,Birao,CF,10.2849,22.7882,93.51,35,72,3.18,broken clouds
338,Bathsheba,BB,13.2167,-59.5167,88.41,66,75,24.16,broken clouds
339,Mitsamiouli,KM,-11.3847,43.2844,79.83,73,91,10.02,overcast clouds
340,Muroto,JP,33.2833,134.15,70.18,66,95,0.98,overcast clouds
341,Burnie,AU,-41.0667,145.9167,49.71,89,100,7.7,light rain
342,Maraba,BR,-5.3686,-49.1178,86.18,74,75,4.61,broken clouds
343,Iracoubo,GF,5.4802,-53.2011,82.35,76,31,10.0,scattered clouds
344,Teseney,ER,15.11,36.6575,101.55,16,10,10.96,clear sky
345,Salalah,OM,17.0151,54.0924,85.28,71,76,6.89,broken clouds
346,Cururupu,BR,-1.8283,-44.8683,77.94,92,99,3.91,light rain
347,Hokota,JP,36.15,140.5167,59.4,88,40,3.44,scattered clouds
348,Lavrentiya,RU,65.5833,-171.0,39.29,83,73,4.34,broken clouds
349,High Level,CA,58.5169,-117.136,55.96,48,88,8.63,overcast clouds
350,Kidal,ML,18.4411,1.4078,106.61,5,0,10.25,clear sky
351,Fernie,CA,49.5,-115.0687,52.93,98,100,2.59,overcast clouds
352,Mount Isa,AU,-20.7333,139.5,64.17,63,40,4.61,scattered clouds
353,Taft,IR,31.7471,54.2088,91.35,10,20,11.5,few clouds
354,Maxixe,MZ,-23.8597,35.3472,72.57,68,4,7.9,clear sky
355,Codrington,AU,-38.2667,141.9667,53.02,82,100,25.08,light rain
356,Kikwit,CD,-5.041,18.8162,92.26,28,51,6.69,broken clouds
357,Road Town,VG,18.4167,-64.6167,82.99,79,60,15.46,broken clouds
358,Sochi,RU,43.6,39.7303,75.29,81,66,4.41,broken clouds
359,Flinders,AU,-34.5833,150.8552,56.05,75,0,1.99,clear sky
360,Tabou,CI,4.423,-7.3528,79.92,84,82,7.83,light rain
361,Olavarria,AR,-36.8927,-60.3225,42.03,87,100,12.03,overcast clouds
362,Pulandian,CN,39.3953,121.9669,64.96,85,81,7.43,broken clouds
363,Krasnogorodsk,RU,56.8357,28.2822,63.79,57,100,9.22,overcast clouds
364,Jawhar,SO,2.7809,45.5005,85.33,51,100,16.87,overcast clouds
365,Bonga,ET,7.2833,36.2333,66.6,94,73,2.8,light rain
366,Kununurra,AU,-15.7667,128.7333,78.78,73,66,0.0,broken clouds
367,Hamilton,US,39.1834,-84.5333,73.89,59,0,3.44,clear sky
368,Barra Do Garcas,BR,-15.89,-52.2567,87.39,40,57,9.8,broken clouds
369,Arlit,NE,18.7369,7.3853,106.34,5,0,6.87,clear sky
370,Bairiki,KI,1.3292,172.9752,80.6,83,20,4.61,few clouds
371,Panama City,PA,8.9936,-79.5197,85.37,79,59,8.55,broken clouds
372,Forrest City,US,35.0081,-90.7898,71.71,60,42,5.75,scattered clouds
373,Yumen,CN,40.2833,97.2,73.71,14,75,10.29,broken clouds
374,Marang,MY,5.2056,103.2059,81.57,77,100,2.06,overcast clouds
375,Hofn,IS,64.2539,-15.2082,48.36,59,14,11.72,few clouds
376,Pecos,US,31.4229,-103.4932,68.09,68,0,3.44,clear sky
377,Lusambo,CD,-4.9667,23.45,93.63,28,99,4.74,overcast clouds
378,Saint-Augustin,CA,51.226,-58.6502,49.23,62,100,14.76,overcast clouds
379,Rijeka,HR,45.3431,14.4092,85.3,48,0,6.91,clear sky
380,Saldanha,ZA,-33.0117,17.9442,62.2,75,100,14.61,overcast clouds
381,Nago,JP,26.5881,127.9761,77.45,94,94,6.91,overcast clouds
382,Ahuimanu,US,21.4447,-157.8378,74.91,80,75,4.61,broken clouds
383,Abu Dhabi,AE,24.4667,54.3667,93.31,58,0,11.5,clear sky
384,Nantucket,US,41.2835,-70.0995,60.94,88,100,10.36,overcast clouds
385,Eirunepe,BR,-6.6603,-69.8736,73.42,98,100,0.96,overcast clouds
386,Barranca,PE,-10.75,-77.7667,67.91,72,66,1.43,broken clouds
387,Kupang,ID,-10.1667,123.5833,79.11,80,63,8.59,broken clouds
388,Old Saybrook,US,41.2918,-72.3762,72.95,81,20,1.01,few clouds
389,Namibe,AO,-15.1961,12.1522,85.87,32,51,10.09,broken clouds
390,Hirado,JP,33.3597,129.5531,69.39,78,100,3.4,overcast clouds
391,Bowen,AU,-20.0167,148.2333,72.43,83,33,5.55,scattered clouds
392,Zhumadian,CN,32.9794,114.0294,77.92,61,39,8.93,scattered clouds
393,Pemangkat,ID,1.1667,108.9667,80.56,77,56,1.05,broken clouds
394,Vazhiny,RU,60.9644,34.0222,58.42,70,96,9.37,overcast clouds
395,Logrono,ES,42.4667,-2.45,81.9,32,20,3.44,few clouds
396,Minab,IR,27.1467,57.0801,102.27,18,0,15.84,clear sky
397,Moose Factory,CA,51.2585,-80.6094,52.38,75,100,9.91,overcast clouds
398,Kysyl-Syr,RU,63.8986,122.7617,55.56,95,46,4.41,scattered clouds
399,Morwell,AU,-38.2333,146.4,53.4,71,92,6.93,overcast clouds
400,Nanortalik,GL,60.1432,-45.2371,45.55,48,93,3.29,overcast clouds
401,Zhezkazgan,KZ,47.8043,67.7144,82.38,18,40,20.13,scattered clouds
402,Saint-Leu,RE,-21.15,55.2833,74.26,72,5,7.87,clear sky
403,Sayyan,YE,15.1718,44.3244,70.75,31,76,16.42,broken clouds
404,Tambopata,PE,-12.7333,-69.1833,66.09,88,40,3.44,scattered clouds
405,Dwarka,IN,22.2394,68.9678,83.19,82,6,15.9,clear sky
406,Matara,LK,5.9485,80.5353,79.2,86,16,11.9,few clouds
407,Zhuhai,CN,22.2769,113.5678,86.86,94,40,8.05,scattered clouds
408,Kavieng,PG,-2.5744,150.7967,81.18,71,29,10.94,scattered clouds
409,Martinopolis,BR,-22.1458,-51.1708,68.77,60,42,13.13,scattered clouds
410,Avera,US,33.194,-82.5271,76.55,67,43,11.41,scattered clouds
411,Narsaq,GL,60.9167,-46.05,62.82,27,0,4.5,clear sky
412,Maragogi,BR,-9.0122,-35.2225,78.98,83,92,9.75,overcast clouds
413,Odienne,CI,9.51,-7.5692,95.36,34,100,4.38,overcast clouds
414,Great Falls,US,47.5002,-111.3008,61.41,71,0,9.22,clear sky
415,Nome,US,64.5011,-165.4064,44.67,76,0,9.22,clear sky
416,Orotukan,RU,62.2667,151.7,56.01,76,88,1.68,overcast clouds
417,Gambela,ET,8.25,34.5833,90.12,39,35,4.03,scattered clouds
418,Tungor,RU,53.3808,142.9564,41.41,86,44,8.08,scattered clouds
419,Vanimo,PG,-2.6741,141.3028,77.23,90,100,3.69,overcast clouds
420,Amuntai,ID,-2.4177,115.2494,75.97,86,42,1.97,scattered clouds
421,Honningsvag,NO,70.9821,25.9704,49.75,81,100,19.57,overcast clouds
422,Vardo,NO,70.3705,31.1107,42.78,93,100,4.61,overcast clouds
423,Litovko,RU,49.2361,135.1742,46.85,88,48,3.91,scattered clouds
424,Naze,JP,28.3667,129.4833,71.37,90,99,12.77,moderate rain
425,Longyearbyen,SJ,78.2186,15.6401,40.84,75,75,27.63,light rain
426,Khatanga,RU,71.9667,102.5,30.27,82,100,16.31,overcast clouds
427,Grindavik,IS,63.8424,-22.4338,46.87,71,20,8.05,few clouds
428,Boone,US,39.0334,-92.3335,72.79,71,7,7.07,clear sky
429,Ambilobe,MG,-13.2,49.05,78.46,60,31,4.92,scattered clouds
430,Puerto Leguizamo,CO,-0.1934,-74.7819,75.33,85,100,2.13,overcast clouds
431,Seddon,AU,-37.8068,144.8916,55.67,75,96,24.16,overcast clouds
432,Vila Franca Do Campo,PT,37.7167,-25.4333,66.61,82,100,12.28,overcast clouds
433,Watsa,CD,3.0372,29.5355,90.18,26,12,7.25,few clouds
434,Tsiroanomandidy,MG,-18.7667,46.0333,73.15,43,1,3.76,clear sky
435,Krikellos,GR,38.95,21.1833,85.73,36,85,8.39,overcast clouds
436,Dhidhdhoo,MV,6.8833,73.1,82.35,82,26,16.6,scattered clouds
437,Bashmakovo,RU,53.2133,43.0342,67.66,56,0,6.78,clear sky
438,Kitimat,CA,54.0524,-128.6534,48.9,27,97,1.59,overcast clouds
439,Voh,NC,-20.9667,164.7,68.5,85,1,5.7,clear sky
440,Vilhena,BR,-12.7406,-60.1458,81.9,46,77,6.13,broken clouds
441,Sebu,PH,6.22,124.6936,70.52,89,100,0.94,overcast clouds
442,Okhotsk,RU,59.3833,143.3,42.8,82,75,3.22,broken clouds
443,Barcelos,PT,41.5388,-8.6151,70.68,64,50,6.73,scattered clouds
444,Juan Lacaze,UY,-34.4342,-57.4381,54.12,72,100,13.94,overcast clouds
445,Impfondo,CG,1.6381,18.0667,86.14,55,100,2.82,overcast clouds
446,Hami,CN,42.8,93.45,81.5,11,18,8.55,few clouds
447,Coahuayana,MX,18.7333,-103.6833,77.99,75,79,1.12,broken clouds
448,Atar,MR,20.5169,-13.0499,103.95,12,100,17.18,overcast clouds
449,Sao Joao Da Barra,BR,-21.6403,-41.0511,69.89,63,95,14.05,overcast clouds
450,Santa Cruz,BO,-17.8,-63.1667,69.26,68,75,10.36,broken clouds
451,Vuktyl,RU,63.8567,57.3094,63.75,28,1,5.39,clear sky
452,Senekal,ZA,-28.3197,27.6208,62.65,25,0,12.44,clear sky
453,Rafai,CF,4.95,23.9167,74.59,92,100,1.25,heavy intensity rain
454,Petropavl,KZ,54.8753,69.1628,54.93,51,58,9.75,broken clouds
455,Souris,CA,49.6172,-100.2612,56.73,61,0,4.47,clear sky
456,Yen Bai,VN,21.7,104.8667,82.22,82,98,2.26,overcast clouds
457,Didsbury,GB,53.417,-2.2315,63.72,62,20,11.5,few clouds
458,Kuching,MY,1.55,110.3333,79.02,94,40,1.14,scattered clouds
459,Bambous Virieux,MU,-20.3428,57.7575,75.45,64,40,17.27,scattered clouds
460,Kalabo,ZM,-14.97,22.6814,76.23,25,3,9.46,clear sky
461,Aasiaat,GL,68.7098,-52.8699,35.47,72,19,8.95,few clouds
462,Cayenne,GF,4.9333,-52.3333,86.09,7,75,4.61,broken clouds
463,Taltal,CL,-25.4,-70.4833,66.18,40,24,1.66,few clouds
464,Alice Springs,AU,-23.7,133.8833,49.55,87,40,0.0,scattered clouds
465,Asau,RO,46.4333,26.4,81.52,67,93,4.18,overcast clouds
466,Athmallik,IN,20.7219,84.5348,92.52,39,100,6.08,overcast clouds
467,Bantou,CN,26.2151,117.4893,75.83,97,100,1.25,light rain
468,Kaura Namoda,NG,12.5898,6.5779,103.5,15,23,6.87,few clouds
469,Geraldton,AU,-28.7667,114.6,54.01,66,100,13.8,overcast clouds
470,Diego De Almagro,CL,-26.3667,-70.05,62.58,20,76,2.06,broken clouds
471,Comodoro Rivadavia,AR,-45.8667,-67.5,48.06,49,0,10.36,clear sky
472,Khartoum,SD,15.5518,32.5324,110.01,12,96,3.0,overcast clouds
473,Kwinana,AU,-32.25,115.7667,52.81,73,10,9.69,clear sky
474,Acajutla,SV,13.5928,-89.8275,80.91,75,100,6.24,overcast clouds
475,Lodja,CD,-3.4833,23.4333,92.97,30,96,6.11,overcast clouds
476,Clacton-On-Sea,GB,51.7897,1.156,64.35,74,77,10.0,broken clouds
477,Baykit,RU,61.67,96.37,39.43,87,76,3.76,broken clouds
478,Gorey,IE,52.6747,-6.2925,56.57,82,97,14.9,overcast clouds
479,Fort Nelson,CA,58.8053,-122.7002,55.78,70,95,4.27,overcast clouds
480,Vagur,FO,61.4732,-6.8119,49.15,91,100,16.89,overcast clouds
481,North Bend,US,43.4065,-124.2243,55.92,99,100,6.91,mist
482,Saint-Prosper,CA,46.2117,-70.4811,64.71,71,87,2.82,overcast clouds
483,Ginda,IN,30.6945,78.4932,72.72,20,20,4.99,few clouds
484,Strathroy,CA,42.9551,-81.6223,59.25,44,1,7.34,clear sky
485,Jumla,NP,29.2747,82.1838,61.25,42,98,4.12,overcast clouds
486,Vila,PT,42.0304,-8.1588,58.08,88,90,4.85,overcast clouds
487,Petropavlovsk-Kamchatskiy,RU,53.0452,158.6483,46.38,75,1,1.12,clear sky
488,Quelimane,MZ,-17.8786,36.8883,73.65,75,20,4.65,few clouds
489,Santa Vitoria Do Palmar,BR,-33.5189,-53.3681,58.39,61,100,11.03,overcast clouds
490,Katherine,AU,-14.4667,132.2667,77.32,61,99,3.44,overcast clouds
491,Ulverstone,AU,-41.15,146.1667,49.05,90,100,5.19,light rain
492,Pangnirtung,CA,66.1451,-65.7125,42.12,90,9,1.86,clear sky
493,Portland,US,45.5234,-122.6762,57.24,90,100,6.91,light rain
494,Brandfort,ZA,-28.7001,26.4597,61.7,26,1,7.72,clear sky
495,Jintur,IN,19.6167,76.7,94.91,29,100,10.96,overcast clouds
496,Karmala,IN,18.4167,75.2,95.25,26,100,15.5,overcast clouds
497,Muzaffarpur,IN,26.1167,85.4,95.5,36,58,12.39,broken clouds
498,Cedar City,US,37.6775,-113.0619,65.39,20,0,0.0,clear sky
499,Ostashkov,RU,57.1467,33.1075,66.25,38,63,9.6,broken clouds
500,Khasan,RU,42.4308,130.6434,51.51,98,100,17.54,light rain
501,Belyy Yar,RU,53.6039,91.3903,49.89,87,40,6.71,light intensity shower rain
502,Ostersund,SE,63.1792,14.6357,52.61,71,40,11.5,scattered clouds
503,Utiel,ES,39.5667,-1.2,83.43,24,0,12.95,clear sky
504,Westport,US,41.1415,-73.3579,75.43,83,13,3.0,few clouds
505,Fort-Shevchenko,KZ,44.5086,50.263,80.2,38,22,4.68,few clouds
506,Kandrian,PG,-6.2167,149.55,77.36,88,97,3.89,overcast clouds
507,Nazarovo,RU,56.0064,90.3914,44.31,71,44,4.76,scattered clouds
508,Sao Filipe,CV,14.8961,-24.4956,77.99,62,15,9.19,few clouds
509,Araguaina,BR,-7.1911,-48.2072,80.15,68,97,3.38,overcast clouds
510,Fortuna,US,40.5982,-124.1573,56.93,88,100,12.66,overcast clouds
511,Hirara,JP,24.8,125.2833,82.11,85,100,16.31,overcast clouds
512,Napier,NZ,-39.4833,176.9167,40.28,92,2,1.01,clear sky
513,Araria,IN,26.15,87.5167,82.94,77,85,13.0,overcast clouds
514,Pyapon,MM,16.2833,95.6833,81.19,81,100,7.94,overcast clouds
515,Buckeye,US,33.3703,-112.5838,84.97,20,9,4.61,clear sky
516,Riyadh,SA,24.6877,46.7219,105.94,5,0,11.14,clear sky
517,Lorengau,PG,-2.0226,147.2712,80.83,72,98,7.27,overcast clouds
518,Vao,NC,-22.6667,167.4833,72.34,70,10,14.83,clear sky
519,Pleasanton,US,37.6624,-121.8747,61.09,82,0,5.75,clear sky
520,Mecca,SA,21.4267,39.8261,102.54,14,0,16.93,clear sky
521,Akureyri,IS,65.6835,-18.0878,51.48,42,7,4.0,clear sky
522,Launceston,AU,-41.45,147.1667,47.16,97,75,1.14,broken clouds
523,Hovd,MN,48.0056,91.6419,66.43,15,100,11.03,overcast clouds
524,Aljezur,PT,37.3191,-8.8033,70.32,68,23,11.63,few clouds
525,Brae,GB,60.3964,-1.353,53.38,73,93,12.75,overcast clouds
526,Krasnoselkup,RU,65.7,82.4667,47.75,44,7,5.01,clear sky
527,Karratha,AU,-20.7377,116.8463,71.65,51,4,5.73,clear sky
528,Warrington,GB,53.3925,-2.5802,66.27,61,40,16.11,scattered clouds
529,Bafoulabe,ML,13.8065,-10.8321,102.06,27,7,7.02,clear sky
530,Itoman,JP,26.1247,127.6694,77.4,94,75,5.75,broken clouds
531,Kayerkan,RU,69.3497,87.7602,32.63,83,100,20.83,overcast clouds
532,Lompoc,US,34.6391,-120.4579,57.78,92,100,18.01,mist
533,Sandwick,GB,60.0,-1.25,55.22,71,20,11.5,few clouds
534,Espanola,US,35.9911,-106.0806,71.17,46,100,1.01,overcast clouds
535,Ishigaki,JP,24.3448,124.1572,82.63,84,92,16.67,overcast clouds
536,Lodwar,KE,3.1191,35.5973,90.79,27,33,16.69,scattered clouds
537,Balkhash,KZ,46.844,74.9804,70.77,45,81,14.0,broken clouds
538,Carutapera,BR,-1.195,-46.02,80.08,88,100,5.39,overcast clouds
539,Mendoza,AR,-32.8908,-68.8272,50.02,49,62,1.95,broken clouds
540,Valdivia,CL,-39.8142,-73.2459,44.69,94,84,1.88,broken clouds
541,Klichka,RU,50.4457,117.996,52.0,90,100,8.61,moderate rain
542,Berlevag,NO,70.8578,29.0864,55.2,87,75,17.27,broken clouds
543,Mayor Pablo Lagerenza,PY,-19.9309,-60.7718,74.01,53,100,7.56,overcast clouds
544,Gold Coast,AU,-28.0,153.4333,54.03,90,100,4.61,overcast clouds
545,Andenes,NO,69.3143,16.1194,49.98,76,75,14.97,broken clouds
546,Moa,CU,20.6569,-74.9403,84.83,60,86,4.61,overcast clouds
